'name';'lon';'lat';'url'
'Paket Shop DHL Call Shop Qasim';9.7242956;52.3850525;'https://www.paket.net/dhl/paketshop/seelze/list/call-shop-qasim/'
'Paket Shop von DHL Deutsche Post Geschäftspostannahme';9.7314938;52.3841068;'https://www.paket.net/dhl/paketshop/seelze/list/deutsche-post-geschaeftspostannahme/'
'DHL Paket Laden Habenicht GmbH & Co. KG';9.7259058;52.3873262;'https://www.paket.net/dhl/paketshop/seelze/list/habenicht-gmbh-und-co-kg/'
'Paketshop DHL FOTO-GENZ GmbH';9.7235855;52.3866527;'https://www.paket.net/dhl/paketshop/seelze/list/foto-genz-gmbh/'
'Paket Shop DHL Filiale Kiosk Tran';9.7209692;52.3845191;'https://www.paket.net/dhl/paketshop/seelze/herrenhausen/kiosk-tran/'
'Paket Shop DHL Filiale Kiosk Hussen';9.7328871;52.3818486;'https://www.paket.net/dhl/paketshop/seelze/list/kiosk-hussen/'
'DHL Paket Laden REWE Christophe Daguerre oHG';9.7334802;52.3879908;'https://www.paket.net/dhl/paketshop/seelze/list/rewe-christophe-daguerre-ohg/'
'Paket Shop DHL Laden An- und Verkauf Limarsat';9.721705;52.3893991;'https://www.paket.net/dhl/paketshop/seelze/herrenhausen/an-und-verkauf-limarsat/'
'DHL Paket Geschäft HR-Hotel';9.737171;52.3812987;'https://www.paket.net/dhl/paketshop/seelze/list/hr-hotel/'
'Paket Shop DHL Geschäft Nordstadt Kiosk';9.7209089;52.3905948;'https://www.paket.net/dhl/paketshop/seelze/hainholz/nordstadt-kiosk/'
'Paket Shop DHL Geschäft REWE Markt GmbH';9.7531004;52.3905909;'https://www.paket.net/dhl/paketshop/seelze/list/rewe-markt-gmbh/'
'Paket Shop DHL Geschäft CALLSHOP Jalal Kano';9.734415;52.3915546;'https://www.paket.net/dhl/paketshop/seelze/list/callshop-jalal-kano/'
'Paketshop DHL Stempel-Blitz & Copy-Druck';9.7352948;52.3927169;'https://www.paket.net/dhl/paketshop/seelze/list/stempel-blitz-und-copy-druck/'
'Paket Shop DHL Laden Kiosk';9.7287143;52.3947613;'https://www.paket.net/dhl/paketshop/seelze/list/kiosk/'
'DHL Paketshop Lotto Sarik';9.7452678;52.382768;'https://www.paket.net/dhl/paketshop/ronnenberg/list/lotto-sarik/'
'DHL Paketshop Lotto Hussein Khder';9.7409335;52.3929865;'https://www.paket.net/dhl/paketshop/seelze/list/lotto-hussein-khder/'
'DHL Paket Shop Änderungsschneiderei Aytekin';9.7467834;52.3824171;'https://www.paket.net/dhl/paketshop/ronnenberg/list/%C3%84nderungsschneiderei-aytekin/'
'DHL Paketshop Schuh- und Schlüsseldienst';9.7482191;52.3883018;'https://www.paket.net/dhl/paketshop/langenhagen-hannover/list/schuh-und-schluesseldienst/'
'Paketshop von DHL Vollgut Getränke Fachmarkt Waldhoff GmbH';9.7321972;52.3978716;'https://www.paket.net/dhl/paketshop/seelze/list/vollgut-getraenke-fachmarkt-waldhoff-gmbh/'
'Paket Shop DHL Laden Kiosk am Thielenplatz';9.7437006;52.374516;'https://www.paket.net/dhl/paketshop/ronnenberg/bult/kiosk-am-thielenplatz/'
'DHL Paketshop Adrian Fruth & Marco Winkler GbR';9.7082026;52.3751006;'https://www.paket.net/dhl/paketshop/seelze/limmer/adrian-fruth-und-marco-winkler-gbr/'
'DHL Paket Filiale Postfiliale im Einzelhandel';9.750519;52.3881395;'https://www.paket.net/dhl/paketshop/ronnenberg/list/postfiliale-im-einzelhandel/'
'Paketshop von DHL Lotto';9.7155731;52.397686;'https://www.paket.net/dhl/paketshop/seelze/hainholz/lotto/'
'Paketshop DHL REWE Ronny Bork OHG';9.7329842;52.3989985;'https://www.paket.net/dhl/paketshop/seelze/list/rewe-ronny-bork-ohg/'
'DHL Paket Laden Harmsen Zigarre & Whisky';9.7111483;52.3723051;'https://www.paket.net/dhl/paketshop/seelze/limmer/harmsen-zigarre-und-whisky/'
'Paketshop DHL Kiosk Hussein';9.7531109;52.3825559;'https://www.paket.net/dhl/paketshop/ronnenberg/list/kiosk-hussein/'
'Paketshop DHL Buchhandlung Baumgart';9.7080946;52.3731888;'https://www.paket.net/dhl/paketshop/seelze/limmer/buchhandlung-baumgart/'
'DHL Paket Geschäft FD Fössedruck';9.7108458;52.370892;'https://www.paket.net/dhl/paketshop/seelze/limmer/fd-foessedruck/'
'Paketshop von DHL Schreibwaren Akbaba - Shop in Shop';9.7047881;52.3744698;'https://www.paket.net/dhl/paketshop/seelze/limmer/schreibwaren-akbaba--shop-in-shop/'
'Paket Shop DHL Filiale Kiosk - Trinkhalle Bibo';9.7017491;52.3750952;'https://www.paket.net/dhl/paketshop/seelze/limmer/kiosk--trinkhalle-bibo/'
'DHL Paket Shop Geschenkartikel Bal';9.7343883;52.4030288;'https://www.paket.net/dhl/paketshop/seelze/vahrenwald/geschenkartikel-bal/'
'Paket Shop DHL Raucher Himmel UG';9.7459852;52.3689319;'https://www.paket.net/dhl/paketshop/ronnenberg/bult/raucher-himmel-ug/'
'Paket Shop DHL Laden Wäscherei am Hirtenweg';9.7397121;52.4023597;'https://www.paket.net/dhl/paketshop/seelze/vahrenwald/waescherei-am-hirtenweg/'
'DHL Paket Filiale Systempartner Computervertriebs GmbH & Co. KG';9.7191111;52.365518;'https://www.paket.net/dhl/paketshop/seelze/ricklingen/systempartner-computervertriebs-gmbh-und-co-kg/'
'DHL Paketshop Postbank Finanzcenter';9.7137527;52.3663178;'https://www.paket.net/dhl/paketshop/seelze/limmer/postbank-finanzcenter/'
'DHL Paket Geschäft Kiosk Ebrahimi-Dezfuli';9.7549591;52.3947199;'https://www.paket.net/dhl/paketshop/langenhagen-hannover/list/kiosk-ebrahimi-dezfuli/'
'Paket Shop von DHL Kiosk';9.7082368;52.36734;'https://www.paket.net/dhl/paketshop/seelze/limmer/kiosk/'
'DHL Paket Geschäft GP-Markt Zoo';9.7575906;52.3743245;'https://www.paket.net/dhl/paketshop/ronnenberg/bult/gp-markt-zoo/'
'Paketshop DHL Kiosk';9.7524476;52.3696778;'https://www.paket.net/dhl/paketshop/ronnenberg/bult/kiosk/'
'DHL Paket Laden Kiosk 12';9.694551;52.375167;'https://www.paket.net/dhl/paketshop/seelze/limmer/kiosk-12/'
'Paket Shop DHL Kiosk Sabri Rashid';9.7610595;52.377839;'https://www.paket.net/dhl/paketshop/ronnenberg/bult/kiosk-sabri-rashid/'
'Paketshop DHL Stichweh Textilpfege GmbH';9.69356;52.3763833;'https://www.paket.net/dhl/paketshop/seelze/limmer/stichweh-textilpfege-gmbh/'
'Paket Shop DHL Laden REWE Markt GmbH';9.6937367;52.3934421;'https://www.paket.net/dhl/paketshop/seelze/herrenhausen/rewe-markt-gmbh/'
'Paket Shop von DHL Kiosk Kliukeviciene';9.7551031;52.370208;'https://www.paket.net/dhl/paketshop/ronnenberg/bult/kiosk-kliukeviciene/'
'DHL Paket Shop Combi Verbrauchermarkt';9.7579582;52.3964082;'https://www.paket.net/dhl/paketshop/langenhagen-hannover/list/combi-verbrauchermarkt/'
'Paketshop DHL REWE Markt GmbH';9.7470683;52.3650597;'https://www.paket.net/dhl/paketshop/ronnenberg/bult/rewe-markt-gmbh/'
'Paket Shop von DHL Postfiliale';9.7521862;52.3668056;'https://www.paket.net/dhl/paketshop/ronnenberg/bult/postfiliale/'
'DHL Paket Filiale Kiosk Basil Suleiman';9.6926988;52.3961319;'https://www.paket.net/dhl/paketshop/seelze/herrenhausen/kiosk-basil-suleiman/'
'Paket Shop DHL Geschäft Kiosk Ünal';9.6890443;52.3772819;'https://www.paket.net/dhl/paketshop/seelze/limmer/kiosk-%C3%9Cnal/'
'Paketshop von DHL Ainx Phone';9.7594024;52.3705124;'https://www.paket.net/dhl/paketshop/ronnenberg/bult/ainx-phone/'
'Paket Shop DHL DSC Hannover GmbH';9.708184;52.4065034;'https://www.paket.net/dhl/paketshop/seelze/hainholz/dsc-hannover-gmbh/'
'Paket Shop von DHL Eynihan Kiosk';9.713642;52.3609122;'https://www.paket.net/dhl/paketshop/seelze/bornum/eynihan-kiosk/'
'Paket Shop von DHL Hannoverstore 24 GmbH';9.7480432;52.3631072;'https://www.paket.net/dhl/paketshop/ronnenberg/bult/hannoverstore-24-gmbh/'
'DHL Paket Shop Pressecentrum Ritter im Real Markt';9.6986995;52.3662225;'https://www.paket.net/dhl/paketshop/seelze/limmer/pressecentrum-ritter-im-real-markt/'
'Paket Shop von DHL Vollgut Dimis Getränkeshop';9.764232;52.3959725;'https://www.paket.net/dhl/paketshop/langenhagen-hannover/list/vollgut-dimis-getraenkeshop/'
'DHL Paket Shop Kaufland';9.7113665;52.4086196;'https://www.paket.net/dhl/paketshop/seelze/hainholz/kaufland/'
'Paket Shop von DHL Frische Ecke';9.6850146;52.3796639;'https://www.paket.net/dhl/paketshop/seelze/limmer/frische-ecke/'
'DHL Paketshop Krausenkiosk';9.7524972;52.3630691;'https://www.paket.net/dhl/paketshop/ronnenberg/bult/krausenkiosk/'
'DHL Paket Geschäft Millenium Kiosk';9.6850444;52.3771385;'https://www.paket.net/dhl/paketshop/seelze/limmer/millenium-kiosk/'
'Paketshop von DHL Kiosk';9.7198373;52.3580192;'https://www.paket.net/dhl/paketshop/seelze/ricklingen/kiosk/'
'DHL Paket Geschäft Die Reinigung';9.7562067;52.3641919;'https://www.paket.net/dhl/paketshop/ronnenberg/bult/die-reinigung/'
'DHL Paket Shop REWE Markt GmbH';9.7155975;52.3581832;'https://www.paket.net/dhl/paketshop/seelze/ricklingen/rewe-markt-gmbh/'
'Paket Shop DHL Filiale Postbank Filiale';9.7535825;52.3621226;'https://www.paket.net/dhl/paketshop/ronnenberg/bult/postbank-filiale/'
'DHL Paket Shop Köschk Tabak & Presse Shop';9.6841928;52.3938413;'https://www.paket.net/dhl/paketshop/seelze/herrenhausen/koeschk-tabak-und-presse-shop/'
'DHL Paketshop Kiosk Serhad';9.6834067;52.3934764;'https://www.paket.net/dhl/paketshop/seelze/herrenhausen/kiosk-serhad/'
'Paketshop DHL Kiosk Abdi';9.751449;52.3592345;'https://www.paket.net/dhl/paketshop/ronnenberg/bult/kiosk-abdi/'
'DHL Paket Filiale MBA GmbH';9.7540272;52.3599014;'https://www.paket.net/dhl/paketshop/ronnenberg/bult/mba-gmbh/'
'Paketshop DHL Kiosk List';9.7714666;52.3978034;'https://www.paket.net/dhl/paketshop/langenhagen-hannover/list/kiosk-list/'
'DHL Paket Laden Quelle-Tiefpreismarkt';9.7505901;52.4117066;'https://www.paket.net/dhl/paketshop/langenhagen-hannover/vahrenwald/quelle-tiefpreismarkt/'
'DHL Paketshop Autohaus Többen GmbH';9.7048103;52.4125093;'https://www.paket.net/dhl/paketshop/seelze/hainholz/autohaus-toebben-gmbh/'
'Paketshop von DHL Aetka Vodafone';9.6784523;52.3957853;'https://www.paket.net/dhl/paketshop/seelze/leinhausen/aetka-vodafone/'
'Paket Shop DHL Filiale Rohmeyer Tabakwaren Getränke Lotto';9.762509;52.3608646;'https://www.paket.net/dhl/paketshop/ronnenberg/bult/rohmeyer-tabakwaren-getraenke-lotto/'
'DHL Paket Laden Wucherpfennig GmbH E-Center';9.7652517;52.3619942;'https://www.paket.net/dhl/paketshop/ronnenberg/bult/wucherpfennig-gmbh-e-center/'
'Paket Shop DHL Laden Kiosk Zeitschriften Vazirian';9.7740016;52.4000687;'https://www.paket.net/dhl/paketshop/langenhagen-hannover/list/kiosk-zeitschriften-vazirian/'
'Paket Shop DHL Filiale Kiosk Nafkosch';9.7222402;52.3517962;'https://www.paket.net/dhl/paketshop/seelze/ricklingen/kiosk-nafkosch/'
'Paketshop von DHL so, so & so Kioskbetriebe';9.7612964;52.3586169;'https://www.paket.net/dhl/paketshop/ronnenberg/bult/so-so-und-so-kioskbetriebe/'
'Paket Shop DHL Geschäft Das Lädchen';9.757689;52.356783;'https://www.paket.net/dhl/paketshop/ronnenberg/waldhausen/das-laedchen/'
'Paket Shop DHL ConBox GmbH';9.717003;52.3514754;'https://www.paket.net/dhl/paketshop/seelze/ricklingen/conbox-gmbh/'
'Paket Shop DHL Kiosk Simsek';9.7637847;52.3415607;'https://www.paket.net/dhl/paketshop/ronnenberg/waldhausen/kiosk-simsek/'
'Paket Shop DHL Filiale Kiosk';9.6706592;52.3851963;'https://www.paket.net/dhl/paketshop/seelze/ahlem-kreis-hannover/kiosk/'
'DHL Paket Shop Das kleine Lädchen';9.6742901;52.3982007;'https://www.paket.net/dhl/paketshop/seelze/leinhausen/das-kleine-laedchen/'
'Paket Shop DHL Filiale Kiosk Mukul';9.7780669;52.4005562;'https://www.paket.net/dhl/paketshop/langenhagen-hannover/list/kiosk-mukul/'
'DHL Paket Filiale toom Baumarkt GmbH';9.7284737;52.4198621;'https://www.paket.net/dhl/paketshop/seelze/vahrenwald/toom-baumarkt-gmbh/'
'Paket Shop DHL Geschäft Kiosk Kaur';9.6672227;52.3826194;'https://www.paket.net/dhl/paketshop/seelze/ahlem-kreis-hannover/kiosk-kaur/'
'Paketshop DHL Postfiliale im Einzelhandel';9.7845621;52.372266;'https://www.paket.net/dhl/paketshop/langenhagen-hannover/kleefeld/postfiliale-im-einzelhandel/'
'Paket Shop DHL Laden Sara''s Cafe Bar';9.6696123;52.3997532;'https://www.paket.net/dhl/paketshop/seelze/leinhausen/saras-cafe-bar/'
'DHL Paketshop all in one game & handy shop';9.7245245;52.3462483;'https://www.paket.net/dhl/paketshop/ronnenberg/ricklingen/all-in-one-game-und-handy-shop/'
'Paket Shop DHL Jonas KG - Im Kaufland Hannover Bornum';9.6928235;52.3521542;'https://www.paket.net/dhl/paketshop/seelze/bornum/jonas-kg--im-kaufland-hannover-bornum/'
'DHL Paket Shop REWE Markt GmbH';9.6785756;52.359594;'https://www.paket.net/dhl/paketshop/seelze/badenstedt/rewe-markt-gmbh/'
'DHL Paket Laden Tabak - Lotto-Toto';9.6734945;52.3634385;'https://www.paket.net/dhl/paketshop/seelze/badenstedt/tabak--lotto-toto/'
'DHL Paket Shop Kiosk MKS';9.7604079;52.4175469;'https://www.paket.net/dhl/paketshop/langenhagen-hannover/vahrenwald/kiosk-mks/'
'DHL Paket Filiale Restore Hannover';9.6640471;52.3782664;'https://www.paket.net/dhl/paketshop/seelze/ahlem-kreis-hannover/restore-hannover/'
'Paketshop DHL Wucherpfennig GmbH';9.7174731;52.3454672;'https://www.paket.net/dhl/paketshop/ronnenberg/ricklingen/wucherpfennig-gmbh/'
'DHL Paket Shop Postbank Filiale';9.7174732;52.3454667;'https://www.paket.net/dhl/paketshop/ronnenberg/ricklingen/postbank-filiale/'
'DHL Paket Geschäft REWE Klaus-Dieter Scholz OHG';9.694359;52.4186566;'https://www.paket.net/dhl/paketshop/seelze/vinnhorst/rewe-klaus-dieter-scholz-ohg/'
'Paket Shop DHL First Class Kiosk Turan';9.724982;52.3446143;'https://www.paket.net/dhl/paketshop/ronnenberg/ricklingen/first-class-kiosk-turan/'
'Paket Shop DHL Postfiliale im Einzelhandel';9.6909256;52.4183933;'https://www.paket.net/dhl/paketshop/seelze/vinnhorst/postfiliale-im-einzelhandel/'
'Paketshop von DHL REWE Markt GmbH';9.7652333;52.417635;'https://www.paket.net/dhl/paketshop/langenhagen-hannover/vahrenwald/rewe-markt-gmbh/'
'Paket Shop DHL Laden Kiosk Brimami';9.7913039;52.3741977;'https://www.paket.net/dhl/paketshop/langenhagen-hannover/kleefeld/kiosk-brimami/'
'DHL Paket Filiale MiBra-Shop';9.6944184;52.4200625;'https://www.paket.net/dhl/paketshop/seelze/vinnhorst/mibra-shop/'
'Paket Shop von DHL Toto-Lotto';9.6772999;52.4124627;'https://www.paket.net/dhl/paketshop/seelze/stoecken/toto-lotto/'
'DHL Paketshop Kiosk Murad Elias';9.7255217;52.4258292;'https://www.paket.net/dhl/paketshop/seelze/vinnhorst/kiosk-murad-elias/'
'DHL Paket Laden Lotto';9.6603138;52.3767031;'https://www.paket.net/dhl/paketshop/seelze/ahlem-kreis-hannover/lotto/'
'DHL Paketshop MiBra-Shop';9.7661083;52.418886;'https://www.paket.net/dhl/paketshop/langenhagen-hannover/vahrenwald/mibra-shop/'
'Paket Shop DHL Wucherpfennig GmbH';9.6809287;52.4157484;'https://www.paket.net/dhl/paketshop/seelze/stoecken/wucherpfennig-gmbh/'
'Paket Shop DHL Der kleine Laden';9.7043616;52.3444046;'https://www.paket.net/dhl/paketshop/seelze/ricklingen/der-kleine-laden/'
'Paketshop DHL PC-Nothilfe Sadraei';9.7953672;52.3765945;'https://www.paket.net/dhl/paketshop/langenhagen-hannover/kleefeld/pc-nothilfe-sadraei/'
'Paketshop von DHL "Die Wunderschere"';9.7091634;52.3432764;'https://www.paket.net/dhl/paketshop/seelze/ricklingen/%22die-wunderschere%22/'
'Paket Shop DHL Filiale Kiosk Ates';9.7173521;52.3422669;'https://www.paket.net/dhl/paketshop/ronnenberg/ricklingen/kiosk-ates/'
'Paketshop von DHL Kiosk Podbi';9.7906028;52.4025542;'https://www.paket.net/dhl/paketshop/langenhagen-hannover/bothfeld/kiosk-podbi/'
'DHL Paket Filiale Bäckerei Krause e.K.';9.7146113;52.3419028;'https://www.paket.net/dhl/paketshop/ronnenberg/ricklingen/baeckerei-krause-e-k-/'
'Paket Shop DHL Geschäft REISEBÜRO FLAMINGO TRAVEL';9.778498;52.4148856;'https://www.paket.net/dhl/paketshop/langenhagen-hannover/bothfeld/reiseb%C3%9Cro-flamingo-travel/'
'Paket Shop DHL Filiale Toto Lotto Badenstedt';9.6717684;52.355844;'https://www.paket.net/dhl/paketshop/seelze/badenstedt/toto-lotto-badenstedt/'
'DHL Paket Shop Lotto';9.7733304;52.3505422;'https://www.paket.net/dhl/paketshop/ronnenberg/waldheim/lotto/'
'DHL Paketshop FRElektronik';9.762432;52.3455088;'https://www.paket.net/dhl/paketshop/ronnenberg/waldhausen/frelektronik/'
'Paket Shop DHL Kiosk - Zeitschriften';9.7720639;52.4200185;'https://www.paket.net/dhl/paketshop/langenhagen-hannover/bothfeld/kiosk--zeitschriften/'
'DHL Paketshop Schreibwaren Demirezen';9.670453;52.3547585;'https://www.paket.net/dhl/paketshop/seelze/badenstedt/schreibwaren-demirezen/'
'Paket Shop DHL Filiale WOLSDORFF';9.7162107;52.4300735;'https://www.paket.net/dhl/paketshop/seelze/vinnhorst/wolsdorff/'
'Paket Shop DHL VIKOLAtours Maurer & Ostrov GbR';9.7015692;52.3410431;'https://www.paket.net/dhl/paketshop/seelze/ricklingen/vikolatours-maurer-und-ostrov-gbr/'
'DHL Paket Geschäft Postfiliale im Einzelhandel';9.6639899;52.4102562;'https://www.paket.net/dhl/paketshop/seelze/stoecken/postfiliale-im-einzelhandel/'
'Paketshop DHL Kiebitzmarkt Langenhagen';9.717547;52.4305897;'https://www.paket.net/dhl/paketshop/seelze/vinnhorst/kiebitzmarkt-langenhagen/'
'DHL Paketshop Postbank Filiale';9.799052;52.4031684;'https://www.paket.net/dhl/paketshop/langenhagen-hannover/bothfeld/postbank-filiale/'
'DHL Paket Filiale Kiosk Klejmann';9.6867901;52.3432824;'https://www.paket.net/dhl/paketshop/seelze/bornum/kiosk-klejmann/'
'DHL Paket Geschäft Base/Vodafone';9.6922639;52.3405849;'https://www.paket.net/dhl/paketshop/seelze/bornum/basevodafone/'
'Paket Shop DHL Kiosk Cicek';9.8003;52.4069344;'https://www.paket.net/dhl/paketshop/langenhagen-hannover/bothfeld/kiosk-cicek/'
'Paketshop DHL Postbank Filiale';9.8114346;52.3890225;'https://www.paket.net/dhl/paketshop/langenhagen-hannover/gross-buchholz/postbank-filiale/'
'DHL Paket Shop Wucherpfennig GmbH';9.766547;52.3385846;'https://www.paket.net/dhl/paketshop/ronnenberg/doehren/wucherpfennig-gmbh/'
'DHL Paketshop Stichweg Textilreinigung GmbH';9.8018235;52.409044;'https://www.paket.net/dhl/paketshop/langenhagen-hannover/bothfeld/stichweg-textilreinigung-gmbh/'
'Paketshop DHL Schreibwaren Tunay';9.7614056;52.3363766;'https://www.paket.net/dhl/paketshop/ronnenberg/doehren/schreibwaren-tunay/'
'DHL Paket Geschäft Shop 68';9.7801132;52.3430307;'https://www.paket.net/dhl/paketshop/ronnenberg/waldheim/shop-68/'
'Paket Shop DHL Wucherpfennig GmbH';9.813117;52.3878871;'https://www.paket.net/dhl/paketshop/langenhagen-hannover/gross-buchholz/wucherpfennig-gmbh/'
'Paket Shop DHL Kiosk Drews';9.8132378;52.3800798;'https://www.paket.net/dhl/paketshop/langenhagen-hannover/gross-buchholz/kiosk-drews/'
'DHL Paket Laden Stichweh Textilreinigung';9.7689934;52.338262;'https://www.paket.net/dhl/paketshop/ronnenberg/doehren/stichweh-textilreinigung/'
'Paketshop von DHL Kiosk Lührs';9.7478274;52.4360394;'https://www.paket.net/dhl/paketshop/langenhagen-hannover/godshorn/kiosk-luehrs/'
'Paketshop von DHL Schreibwaren Kaya';9.7686321;52.3376846;'https://www.paket.net/dhl/paketshop/ronnenberg/doehren/schreibwaren-kaya/'
'Paket Shop DHL Geschäft Pinar Tepe';9.668984;52.3444894;'https://www.paket.net/dhl/paketshop/seelze/empelde/pinar-tepe/'
'Paket Shop DHL LEO Tankstelle';9.6529981;52.4130586;'https://www.paket.net/dhl/paketshop/seelze/stoecken/leo-tankstelle/'
'DHL Paket Laden Kiosk Aksakal';9.7315125;52.4384782;'https://www.paket.net/dhl/paketshop/langenhagen-hannover/godshorn/kiosk-aksakal/'
'Paket Shop DHL Geschäft Postfiliale im Einzelhandel';9.7417396;52.4389216;'https://www.paket.net/dhl/paketshop/seelze/godshorn/postfiliale-im-einzelhandel/'
'Paket Shop DHL Filiale M&Z Schreibwaren-Lottoannahme';9.6377703;52.3972052;'https://www.paket.net/dhl/paketshop/seelze/letter/mundz-schreibwaren-lottoannahme/'
'Paketshop DHL Postbank Filiale';9.7392477;52.4399227;'https://www.paket.net/dhl/paketshop/langenhagen-hannover/godshorn/postbank-filiale/'
'Paket Shop von DHL REWE Markt GmbH';9.6684693;52.3407812;'https://www.paket.net/dhl/paketshop/seelze/empelde/rewe-markt-gmbh/'
'Paketshop DHL Skriptum';9.7990547;52.4201319;'https://www.paket.net/dhl/paketshop/langenhagen-hannover/bothfeld/skriptum/'
'DHL Paket Shop REWE Markt GmbH';9.7736697;52.3353433;'https://www.paket.net/dhl/paketshop/ronnenberg/doehren/rewe-markt-gmbh/'
'Paketshop DHL Bäckerei Die Drei';9.8039842;52.4169469;'https://www.paket.net/dhl/paketshop/langenhagen-hannover/bothfeld/baeckerei-die-drei/'
'Paket Shop DHL Laden Rewe/Lebensmittel';9.7049587;52.3287241;'https://www.paket.net/dhl/paketshop/ronnenberg/wettbergen/rewelebensmittel/'
'Paket Shop DHL Laden Postfiliale im Einzelhandel';9.7264512;52.325974;'https://www.paket.net/dhl/paketshop/ronnenberg/devese/postfiliale-im-einzelhandel/'
'DHL Paket Filiale Contail GmbH';9.691143;52.328895;'https://www.paket.net/dhl/paketshop/seelze/wettbergen/contail-gmbh/'
'Paket Shop DHL Laden ITALY FLAIR E-SMOKERS';9.7745587;52.3308933;'https://www.paket.net/dhl/paketshop/ronnenberg/wuelfel/italy-flair-e-smokers/'
'Paket Shop von DHL Express Änderung Schneiderei SA';9.684893;52.3271988;'https://www.paket.net/dhl/paketshop/seelze/wettbergen/express-%C3%84nderung-schneiderei-sa/'
'DHL Paket Shop Kiosk Luise';9.8296852;52.3877286;'https://www.paket.net/dhl/paketshop/langenhagen-hannover/gross-buchholz/kiosk-luise/'
'DHL Paket Shop Kiosk Ibrahim';9.7400198;52.4473388;'https://www.paket.net/dhl/paketshop/langenhagen-hannover/kraehenwinkel/kiosk-ibrahim/'
'DHL Paketshop Kiosk Demiray';9.7409753;52.4489281;'https://www.paket.net/dhl/paketshop/langenhagen-hannover/kraehenwinkel/kiosk-demiray/'
'DHL Paket Laden Lotto';9.8267106;52.3611528;'https://www.paket.net/dhl/paketshop/laatzen-bei-hannover/kirchrode/lotto/'
'DHL Paketshop Postagentur Misburg';9.8339941;52.3866933;'https://www.paket.net/dhl/paketshop/lehrte-bei-hannover/gross-buchholz/postagentur-misburg/'
'Paketshop von DHL Kiosk Amsterdam';9.832174;52.3972757;'https://www.paket.net/dhl/paketshop/langenhagen-hannover/gross-buchholz/kiosk-amsterdam/'
'Paket Shop DHL REWE Dimitrij Herhold OHG';9.7876167;52.3303928;'https://www.paket.net/dhl/paketshop/ronnenberg/mittelfeld/rewe-dimitrij-herhold-ohg/'
'DHL Paket Filiale Vollgut Getränke Fachmart Waldhoff GmbH Höxter-Kassel-Erfurt';9.8012247;52.4320067;'https://www.paket.net/dhl/paketshop/langenhagen-hannover/isernhagen-sued/vollgut-getraenke-fachmart-waldhoff-gmbh-hoexter-kassel-erfurt/'
'DHL Paket Geschäft CENTIK';9.7981703;52.3342283;'https://www.paket.net/dhl/paketshop/ronnenberg/mittelfeld/centik/'
'Paket Shop von DHL Aral Tankstelle';9.8260362;52.4145227;'https://www.paket.net/dhl/paketshop/langenhagen-hannover/lahe/aral-tankstelle/'
'DHL Paketshop Kiosk Cölükoglu';9.6453895;52.4313397;'https://www.paket.net/dhl/paketshop/seelze/stoecken/kiosk-coeluekoglu/'
'DHL Paket Geschäft Tabakwaren Niemeyer im Real Markt';9.7226816;52.3158863;'https://www.paket.net/dhl/paketshop/ronnenberg/devese/tabakwaren-niemeyer-im-real-markt/'
'DHL Paket Geschäft PAPER MOON';9.8028716;52.435224;'https://www.paket.net/dhl/paketshop/langenhagen-hannover/isernhagen-sued/paper-moon/'
'Paket Shop von DHL REWE Markt GmbH';9.8205154;52.3462587;'https://www.paket.net/dhl/paketshop/laatzen-bei-hannover/bemerode/rewe-markt-gmbh/'
'Paket Shop DHL Filiale JET Tankstelle';9.7925277;52.3270955;'https://www.paket.net/dhl/paketshop/ronnenberg/mittelfeld/jet-tankstelle/'
'Paket Shop von DHL Q 1';9.7836143;52.3218471;'https://www.paket.net/dhl/paketshop/ronnenberg/wuelfel/q-1/'
'Paketshop DHL Tankstelle Burhan';9.6098948;52.3920207;'https://www.paket.net/dhl/paketshop/seelze/seelze/tankstelle-burhan/'
'Paket Shop DHL Laden Schwarz Drogeriemarkt';9.8281825;52.3470147;'https://www.paket.net/dhl/paketshop/laatzen-bei-hannover/bemerode/schwarz-drogeriemarkt/'
'Paket Shop DHL Laden Zeitschriften / Lotto-Toto';9.6669207;52.4472297;'https://www.paket.net/dhl/paketshop/seelze/engelbostel/zeitschriften-lotto-toto/'
'Paket Shop DHL Stein Euronics electronic shop';9.6107375;52.405366;'https://www.paket.net/dhl/paketshop/seelze/marienwerder/stein-euronics-electronic-shop/'
'DHL Paket Laden Vollgut Getränkemarkt';9.8266304;52.3415299;'https://www.paket.net/dhl/paketshop/sehnde/bemerode/vollgut-getraenkemarkt/'
'Paket Shop DHL Filiale Lotto/ Toto';9.7432754;52.4604563;'https://www.paket.net/dhl/paketshop/wedemark/kraehenwinkel/lotto-toto/'
'Paketshop DHL Tabakshop/Lotto';9.7955125;52.3199981;'https://www.paket.net/dhl/paketshop/ronnenberg/mittelfeld/tabakshoplotto/'
'DHL Paket Laden WOLSDORFF';9.8360802;52.4239492;'https://www.paket.net/dhl/paketshop/langenhagen-hannover/lahe/wolsdorff/'
'Paket Shop von DHL Kleeblatt';9.8537449;52.3907926;'https://www.paket.net/dhl/paketshop/lehrte-bei-hannover/gross-buchholz/kleeblatt/'
'Paket Shop von DHL Staples';9.8362095;52.4243512;'https://www.paket.net/dhl/paketshop/langenhagen-hannover/lahe/staples/'
'Paket Shop von DHL Postfiliale im Einzelhandel';9.6571695;52.3189158;'https://www.paket.net/dhl/paketshop/seelze/ronnenberg/postfiliale-im-einzelhandel/'
'Paketshop DHL Landhandel Puhl';9.6618849;52.4520338;'https://www.paket.net/dhl/paketshop/seelze/engelbostel/landhandel-puhl/'
'Paketshop von DHL Combi Verbrauchermarkt';9.6038456;52.4083006;'https://www.paket.net/dhl/paketshop/seelze/marienwerder/combi-verbrauchermarkt/'
'Paketshop DHL Lotto';9.856624;52.3884077;'https://www.paket.net/dhl/paketshop/lehrte-bei-hannover/gross-buchholz/lotto/'
'Paketshop von DHL Schreibwaren';9.8328073;52.3385492;'https://www.paket.net/dhl/paketshop/sehnde/bemerode/schreibwaren/'
'DHL Paket Shop Lebensmittel Schengo';9.8512214;52.3592772;'https://www.paket.net/dhl/paketshop/sehnde/anderten-kreis-hannover/lebensmittel-schengo/'
'DHL Paket Laden Kiosk Khedir Khalil';9.7916245;52.3148855;'https://www.paket.net/dhl/paketshop/ronnenberg/grasdorf-leine/kiosk-khedir-khalil/'
'DHL Paketshop REWE Markt GmbH';9.8544273;52.3574629;'https://www.paket.net/dhl/paketshop/sehnde/anderten-kreis-hannover/rewe-markt-gmbh/'
'Paket Shop DHL Geschäft Kiosk Lotto';9.6027217;52.4180386;'https://www.paket.net/dhl/paketshop/seelze/havelse/kiosk-lotto/'
'Paketshop von DHL Tabakstore';9.7405158;52.3018802;'https://www.paket.net/dhl/paketshop/ronnenberg/arnum-kreis-hannover/tabakstore/'
'DHL Paket Shop REWE Torben Dunker';9.5927752;52.3984215;'https://www.paket.net/dhl/paketshop/seelze/seelze/rewe-torben-dunker/'
'Paketshop DHL Getränke-Quelle Hannover';9.8620441;52.3715257;'https://www.paket.net/dhl/paketshop/sehnde/anderten-kreis-hannover/getraenke-quelle-hannover/'
'Paket Shop DHL Filiale Husak KG';9.8588984;52.3610551;'https://www.paket.net/dhl/paketshop/sehnde/anderten-kreis-hannover/husak-kg/'
'DHL Paketshop Heitmüller e.K.';9.5899957;52.3961523;'https://www.paket.net/dhl/paketshop/seelze/seelze/heitmueller-e-k-/'
'Paket Shop von DHL Berufsbildungswerk Annastift';9.8184716;52.3212118;'https://www.paket.net/dhl/paketshop/laatzen-bei-hannover/wuelferode/berufsbildungswerk-annastift/'
'Paket Shop von DHL Postfiliale im Einzelhandel';9.801375;52.45617;'https://www.paket.net/dhl/paketshop/langenhagen-hannover/isernhagen-sued/postfiliale-im-einzelhandel/'
'Paket Shop von DHL TRIKOM Vertriebs GmbH';9.596949;52.4171225;'https://www.paket.net/dhl/paketshop/seelze/havelse/trikom-vertriebs-gmbh/'
'DHL Paket Filiale Lotto';9.5973347;52.4181347;'https://www.paket.net/dhl/paketshop/seelze/havelse/lotto/'
'Paket Shop von DHL Lotto';9.6118593;52.4366024;'https://www.paket.net/dhl/paketshop/seelze/berenbostel/lotto/'
'DHL Paketshop SchreibWahn';9.8500967;52.4316136;'https://www.paket.net/dhl/paketshop/langenhagen-hannover/altwarmbuechen/schreibwahn/'
'DHL Paket Shop WOLSDORFF';9.5979449;52.425676;'https://www.paket.net/dhl/paketshop/seelze/havelse/wolsdorff/'
'Paketshop DHL Postbank Filiale';9.5963806;52.4259444;'https://www.paket.net/dhl/paketshop/seelze/havelse/postbank-filiale/'
'DHL Paketshop Kleine Post';9.4876122;52.2912277;'https://www.paket.net/dhl/paketshop/springe-deister/barsinghausen/kleine-post/'
'DHL Paket Shop REWE Thorsten Krause oHG';9.4883245;52.3034353;'https://www.paket.net/dhl/paketshop/barsinghausen/barsinghausen/rewe-thorsten-krause-ohg/'
'Paketshop DHL Kaufland';9.4691588;52.3044789;'https://www.paket.net/dhl/paketshop/barsinghausen/barsinghausen/kaufland/'
'Paket Shop DHL Postbank Filiale';9.4652145;52.3044879;'https://www.paket.net/dhl/paketshop/barsinghausen/barsinghausen/postbank-filiale/'
'Paketshop von DHL Easy Smoke & More';9.4619072;52.3025047;'https://www.paket.net/dhl/paketshop/barsinghausen/barsinghausen/easy-smoke-und-more/'
'Paket Shop von DHL Kim''s Spielzeugwelt';9.4540478;52.3044033;'https://www.paket.net/dhl/paketshop/barsinghausen/barsinghausen/kims-spielzeugwelt/'
'Paket Shop DHL Geschäft Postfiliale im Einzelhandel';9.5146909;52.2884984;'https://www.paket.net/dhl/paketshop/springe-deister/egestorf-am-deister/postfiliale-im-einzelhandel/'
'DHL Paket Geschäft Bäckerei H. Höner';9.4328426;52.3202597;'https://www.paket.net/dhl/paketshop/barsinghausen/winninghausen-am-deister/baeckerei-h-hoener/'
'Paket Shop von DHL Frischmarkt Gustav Nolting';9.568688;52.2725114;'https://www.paket.net/dhl/paketshop/springe-deister/wennigsen/frischmarkt-gustav-nolting/'
'DHL Paket Geschäft REWE Marco Startari OHG';9.575414;52.2814398;'https://www.paket.net/dhl/paketshop/springe-deister/wennigsen/rewe-marco-startari-ohg/'
'DHL Paket Shop Lottogeschäft Dombrowski im E-Center';9.4054908;52.3365986;'https://www.paket.net/dhl/paketshop/wunstorf/waltringhausen-kreis-grafschaft-schaumburg/lottogeschaeft-dombrowski-im-e-center/'
'Paket Shop DHL Filiale Lotto';9.4164107;52.2373322;'https://www.paket.net/dhl/paketshop/springe-deister/eimbeckhausen/lotto/'
'Paketshop von DHL Kleine-Geschenke-Galerie';9.3860599;52.3380534;'https://www.paket.net/dhl/paketshop/wunstorf/bad-nenndorf/kleine-geschenke-galerie/'
'DHL Paket Shop August Paulmann, Schreibwaren, Zeitschriften';9.3686088;52.2734564;'https://www.paket.net/dhl/paketshop/barsinghausen/lauenau/august-paulmann-schreibwaren-zeitschriften/'
'Paketshop von DHL Büro & Co.';9.599049;52.3147028;'https://www.paket.net/dhl/paketshop/seelze/gehrden/buero-und-co-/'
'Paket Shop DHL REWE Marén Hünecke OHG';9.3767873;52.336424;'https://www.paket.net/dhl/paketshop/barsinghausen/bad-nenndorf/rewe-mar%C3%A9n-huenecke-ohg/'
'DHL Paket Shop REWE Georg Szedlak oHG';9.5990064;52.3163736;'https://www.paket.net/dhl/paketshop/seelze/gehrden/rewe-georg-szedlak-ohg/'
'Paket Shop von DHL WEZ';9.3697274;52.33001;'https://www.paket.net/dhl/paketshop/barsinghausen/bad-nenndorf/wez/'
'DHL Paket Laden Reisebüro am Markt';9.354158;52.3116185;'https://www.paket.net/dhl/paketshop/barsinghausen/rodenberg/reisebuero-am-markt/'
'Paket Shop DHL Laden EDEKA Frische Center';9.6094264;52.3097499;'https://www.paket.net/dhl/paketshop/seelze/gehrden/edeka-frische-center/'
'DHL Paket Filiale Hotel Berghof';9.3403362;52.2885692;'https://www.paket.net/dhl/paketshop/barsinghausen/apelern/hotel-berghof/'
'Paket Shop DHL Geschäft Second Hand Bücher';9.3381984;52.286291;'https://www.paket.net/dhl/paketshop/barsinghausen/apelern/second-hand-buecher/'
'Paket Shop DHL Filiale Bleich-Schreiben u. Schenken';10.0088471;52.4451828;'https://www.paket.net/dhl/paketshop/lehrte-bei-hannover/burgdorf/bleich-schreiben-u-schenken/'
'Paket Shop DHL Schüler & Asnet GmbH';10.0122387;52.447428;'https://www.paket.net/dhl/paketshop/lehrte-bei-hannover/burgdorf/schueler-und-asnet-gmbh/'
'DHL Paketshop bft-Tankstelle Coknez';10.0163986;52.4443191;'https://www.paket.net/dhl/paketshop/lehrte-bei-hannover/burgdorf/bft-tankstelle-coknez/'
'DHL Paket Geschäft Monika´s Lädchen';10.0617176;52.3949312;'https://www.paket.net/dhl/paketshop/lehrte-bei-hannover/immensen-bei-lehrte/monika%C2%B4s-laedchen/'
'DHL Paketshop Firma Krull GbR';9.9404089;52.4984293;'https://www.paket.net/dhl/paketshop/isernhagen/engensen/firma-krull-gbr/'
'Paket Shop von DHL schüler & asnet GmbH';10.093874;52.483031;'https://www.paket.net/dhl/paketshop/burgdorf-kreis-hannover/haenigsen/schueler-und-asnet-gmbh/'
'Paket Shop DHL Geschäft Freie Tankstelle Kirchhorst';9.8945324;52.4430937;'https://www.paket.net/dhl/paketshop/lehrte-bei-hannover/kirchhorst/freie-tankstelle-kirchhorst/'
'DHL Paket Filiale Voltmer''s Schreib-Post';10.0152098;52.5180335;'https://www.paket.net/dhl/paketshop/burgdorf-kreis-hannover/otze/voltmers-schreib-post/'
'DHL Paket Geschäft Postbank Filiale';9.9739739;52.3779733;'https://www.paket.net/dhl/paketshop/sehnde/lehrte/postbank-filiale/'
'Paket Shop von DHL Kiosk Neuwarmbüchen';9.8902309;52.4649781;'https://www.paket.net/dhl/paketshop/isernhagen/kirchhorst/kiosk-neuwarmbuechen/'
'Paket Shop von DHL Autoschilder Lehrte';9.9755347;52.3728666;'https://www.paket.net/dhl/paketshop/sehnde/lehrte/autoschilder-lehrte/'
'Paket Shop DHL Filiale Kiosk Kipolo';9.8799112;52.4401033;'https://www.paket.net/dhl/paketshop/lehrte-bei-hannover/kirchhorst/kiosk-kipolo/'
'Paket Shop von DHL barisch telekommunikation';9.9057918;52.4945354;'https://www.paket.net/dhl/paketshop/isernhagen/thoense/barisch-telekommunikation/'
'Paketshop von DHL EDEKA';10.1006545;52.3881;'https://www.paket.net/dhl/paketshop/lehrte-bei-hannover/arpke/edeka/'
'Paketshop von DHL Edeka Hohlfeldt';9.9605373;52.3684917;'https://www.paket.net/dhl/paketshop/sehnde/lehrte/edeka-hohlfeldt/'
'Paket Shop von DHL Kiosk Unter den Eichen';9.9192709;52.5140856;'https://www.paket.net/dhl/paketshop/isernhagen/wettmar/kiosk-unter-den-eichen/'
'Paketshop DHL Gold An- und Verkauf';9.6083094;52.4439772;'https://www.paket.net/dhl/paketshop/seelze/berenbostel/gold-an-und-verkauf/'
'DHL Paketshop Rakhshandeh/Damfastore Garbsen';9.5914123;52.4226677;'https://www.paket.net/dhl/paketshop/seelze/havelse/rakhshandehdamfastore-garbsen/'
'Paketshop von DHL Kleinschreibwaren';9.624383;52.4491561;'https://www.paket.net/dhl/paketshop/seelze/stelingen/kleinschreibwaren/'
'Paket Shop DHL Laden Kiosk Sengül';9.5856466;52.4212557;'https://www.paket.net/dhl/paketshop/seelze/havelse/kiosk-senguel/'
'DHL Paket Geschäft Jantzon Tankstellen GmbH';9.5877539;52.4172837;'https://www.paket.net/dhl/paketshop/seelze/havelse/jantzon-tankstellen-gmbh/'
'Paket Shop von DHL Schreibwaren und Postagentur Osterwald';9.5777201;52.4587495;'https://www.paket.net/dhl/paketshop/seelze/osterwald-unterende/schreibwaren-und-postagentur-osterwald/'
'DHL Paket Geschäft Combi Verbrauchermarkt';9.5536616;52.4402764;'https://www.paket.net/dhl/paketshop/wunstorf/horst-bei-wunstorf/combi-verbrauchermarkt/'
'Paket Shop DHL Kiosk';9.5444129;52.4411764;'https://www.paket.net/dhl/paketshop/wunstorf/horst-bei-wunstorf/kiosk/'
'DHL Paket Filiale Postfiliale';9.5602014;52.4041333;'https://www.paket.net/dhl/paketshop/wunstorf/lohnde/postfiliale/'
'DHL Paketshop Postfiliale';9.5294253;52.4088215;'https://www.paket.net/dhl/paketshop/wunstorf/guemmer/postfiliale/'
'Paketshop von DHL Postfiliale';9.5243659;52.469324;'https://www.paket.net/dhl/paketshop/wunstorf/frielingen-bei-wunstorf/postfiliale/'
'Paket Shop DHL Geschäft Postfiliale';9.6300515;52.4996661;'https://www.paket.net/dhl/paketshop/wedemark/resse-bei-hannover/postfiliale/'
'Paket Shop DHL Geschäft Postfiliale';9.4832533;52.4679076;'https://www.paket.net/dhl/paketshop/wunstorf/bordenau/postfiliale/'
'Paketshop von DHL Nahkauf';9.4674182;52.4243721;'https://www.paket.net/dhl/paketshop/wunstorf/luthe/nahkauf/'
'DHL Paket Filiale Lotto';9.7965515;52.4755643;'https://www.paket.net/dhl/paketshop/wedemark/kraehenwinkel/lotto/'
'Paket Shop von DHL Kiosk am Isernhagenhof';9.8482926;52.4721203;'https://www.paket.net/dhl/paketshop/langenhagen-hannover/grossburgwedel/kiosk-am-isernhagenhof/'
'Paketshop DHL Schreibwaren Geschenkartikel';9.8602056;52.4900209;'https://www.paket.net/dhl/paketshop/langenhagen-hannover/grossburgwedel/schreibwaren-geschenkartikel/'
'Paket Shop DHL Laden Ihr persönliches Kaufhaus';9.8596515;52.4950102;'https://www.paket.net/dhl/paketshop/wedemark/grossburgwedel/ihr-persoenliches-kaufhaus/'
'DHL Paket Laden Milchzahn & mehr';9.7351503;52.4798797;'https://www.paket.net/dhl/paketshop/wedemark/kaltenweide/milchzahn-und-mehr/'
'Paketshop DHL Martina Masur';9.7546039;52.5248753;'https://www.paket.net/dhl/paketshop/wedemark/bissendorf-han/martina-masur/'
'DHL Paketshop Famila';9.7465111;52.548471;'https://www.paket.net/dhl/paketshop/wedemark/gailhof/famila/'
'DHL Paket Shop Postpartneragentur';9.7361954;52.5466861;'https://www.paket.net/dhl/paketshop/wedemark/mellendorf-han/postpartneragentur/'
'Paket Shop von DHL M1 Tankstelle';9.8377026;52.5642993;'https://www.paket.net/dhl/paketshop/wedemark/fuhrberg/m1-tankstelle/'
'DHL Paketshop Expert Handels GmbH';9.8119137;52.3065448;'https://www.paket.net/dhl/paketshop/laatzen-bei-hannover/grasdorf-leine/expert-handels-gmbh/'
'DHL Paket Shop Postbank Filiale';9.8126615;52.307004;'https://www.paket.net/dhl/paketshop/laatzen-bei-hannover/grasdorf-leine/postbank-filiale/'
'Paketshop DHL Hannovertextil';9.806909;52.3029413;'https://www.paket.net/dhl/paketshop/laatzen-bei-hannover/grasdorf-leine/hannovertextil/'
'DHL Paket Geschäft KIOSK 67 A';9.8221046;52.3053087;'https://www.paket.net/dhl/paketshop/sehnde/grasdorf-leine/kiosk-67-a/'
'Paket Shop DHL Geschäft LOTTO u. POSTAGENTUR RETHEN';9.8217821;52.2847183;'https://www.paket.net/dhl/paketshop/laatzen-bei-hannover/rethen-leine/lotto-u-postagentur-rethen/'
'Paket Shop von DHL Lotto/ Toto';9.8440043;52.273731;'https://www.paket.net/dhl/paketshop/sehnde/gleidingen/lotto-toto/'
'Paket Shop von DHL Valora Retail Services GmbH';9.7704673;52.2648124;'https://www.paket.net/dhl/paketshop/ronnenberg/pattensen/valora-retail-services-gmbh/'
'Paket Shop DHL Laden Postfiliale im Einzelhandel';9.8818402;52.2817228;'https://www.paket.net/dhl/paketshop/sehnde/oesselse/postfiliale-im-einzelhandel/'
'DHL Paket Shop Großannahmestellen Brief';9.7809825;52.2592069;'https://www.paket.net/dhl/paketshop/laatzen-bei-hannover/pattensen/grossannahmestellen-brief/'
'Paketshop von DHL Schreibwaren Ayalti';9.764273;52.2631651;'https://www.paket.net/dhl/paketshop/ronnenberg/pattensen/schreibwaren-ayalti/'
'Paket Shop DHL Geschäft Die Bücherecke';9.7602062;52.2640678;'https://www.paket.net/dhl/paketshop/ronnenberg/pattensen/die-buecherecke/'
'Paketshop von DHL Landbäckerei Bazdaras';9.7099829;52.2809577;'https://www.paket.net/dhl/paketshop/ronnenberg/hiddestorf-kreis-hannover/landbaeckerei-bazdaras/'
'Paketshop von DHL SWT';9.8560472;52.2411112;'https://www.paket.net/dhl/paketshop/laatzen-bei-hannover/sarstedt/swt/'
'Paket Shop von DHL Lotto';9.857434;52.2365316;'https://www.paket.net/dhl/paketshop/laatzen-bei-hannover/sarstedt/lotto/'
'Paket Shop von DHL REWE Markt GmbH';9.8456589;52.2299882;'https://www.paket.net/dhl/paketshop/laatzen-bei-hannover/sarstedt/rewe-markt-gmbh/'
'DHL Paket Laden Postfiliale im Einzelhandel';9.873738;52.2369856;'https://www.paket.net/dhl/paketshop/laatzen-bei-hannover/sarstedt/postfiliale-im-einzelhandel/'
'Paket Shop DHL Geschäft Tankstelle Marx';9.869705;52.2346279;'https://www.paket.net/dhl/paketshop/laatzen-bei-hannover/sarstedt/tankstelle-marx/'
'DHL Paket Laden Kullick & Enderling GbR';9.9094651;52.3664828;'https://www.paket.net/dhl/paketshop/sehnde/ahlten/kullick-und-enderling-gbr/'
'Paketshop DHL Bäckerei Krause e.K.';9.6715155;52.2991739;'https://www.paket.net/dhl/paketshop/ronnenberg/ronnenberg/baeckerei-krause-e-k-/'
'DHL Paket Filiale Kiosk Franz';9.9083172;52.368592;'https://www.paket.net/dhl/paketshop/sehnde/ahlten/kiosk-franz/'
'Paket Shop DHL Lotto';9.9337632;52.3474975;'https://www.paket.net/dhl/paketshop/sehnde/ilten-han/lotto/'
'Paket Shop DHL Geschäft Kiosk-Trinkhalle Bosse';9.8405786;52.2242061;'https://www.paket.net/dhl/paketshop/laatzen-bei-hannover/giften/kiosk-trinkhalle-bosse/'
'Paketshop DHL Dorff-Laden';9.9454407;52.333679;'https://www.paket.net/dhl/paketshop/sehnde/ilten-han/dorff-laden/'
'DHL Paketshop 3 X P';9.9653069;52.3158606;'https://www.paket.net/dhl/paketshop/sehnde/sehnde/3-x-p/'
'DHL Paket Shop Toto-Lotto Tabakwaren Rampf (REWE Markt)';9.9703645;52.3153034;'https://www.paket.net/dhl/paketshop/sehnde/sehnde/toto-lotto-tabakwaren-rampf-rewe-markt/'
'Paket Shop DHL Laden Geschenkartikel Sigrid Littau';10.115268;52.3561001;'https://www.paket.net/dhl/paketshop/lehrte-bei-hannover/haemelerwald/geschenkartikel-sigrid-littau/'
'Paket Shop DHL Filiale EDEKA Lustfeld';9.4437731;52.5048235;'https://www.paket.net/dhl/paketshop/wunstorf/empede/edeka-lustfeld/'
'DHL Paketshop bücher - basteln - papeterie';9.4576809;52.505265;'https://www.paket.net/dhl/paketshop/wunstorf/mecklenhorst-am-ruebenberge/buecher--basteln--papeterie/'
'Paket Shop DHL Laden REWE Dietrichs';9.4557207;52.4999307;'https://www.paket.net/dhl/paketshop/wunstorf/mecklenhorst-am-ruebenberge/rewe-dietrichs/'
'Paket Shop DHL Geschäft Frankie''s Store';9.443303;52.5000502;'https://www.paket.net/dhl/paketshop/wunstorf/poggenhagen/frankies-store/'
'Paketshop DHL Jibi Verbrauchermarkt';9.4602197;52.5065536;'https://www.paket.net/dhl/paketshop/wunstorf/mecklenhorst-am-ruebenberge/jibi-verbrauchermarkt/'
'Paket Shop DHL Postbank Filiale';9.4616899;52.506846;'https://www.paket.net/dhl/paketshop/wunstorf/mecklenhorst-am-ruebenberge/postbank-filiale/'
'DHL Paket Laden Q1 Tankstelle';9.4561537;52.4951009;'https://www.paket.net/dhl/paketshop/wunstorf/poggenhagen/q1-tankstelle/'
'DHL Paket Geschäft Famila-Handelsmarkt Hamburg GmbH & Co. KG';9.4783994;52.5107162;'https://www.paket.net/dhl/paketshop/neustadt-am-ruebenberge/mecklenhorst-am-ruebenberge/famila-handelsmarkt-hamburg-gmbh-und-co-kg/'
'Paket Shop DHL Laden Seniorenbedarf Poggenhagen';9.4432588;52.4770217;'https://www.paket.net/dhl/paketshop/wunstorf/poggenhagen/seniorenbedarf-poggenhagen/'
'DHL Paket Filiale DER KIOSK';9.3679707;52.4576524;'https://www.paket.net/dhl/paketshop/wunstorf/steinhude/der-kiosk/'
'DHL Paketshop Frischmarkt Nah und Gut';9.4314723;52.5760375;'https://www.paket.net/dhl/paketshop/neustadt-am-ruebenberge/hagen-bei-nienburg-weser/frischmarkt-nah-und-gut/'
'Paket Shop DHL Filiale Hannoverstore 24';9.3599106;52.4540482;'https://www.paket.net/dhl/paketshop/wunstorf/steinhude/hannoverstore-24/'
'Paket Shop DHL Marktkauf';9.4189201;52.4307242;'https://www.paket.net/dhl/paketshop/wunstorf/klein-heidorn/marktkauf/'
'DHL Paket Shop Thies Media';9.4262149;52.4263781;'https://www.paket.net/dhl/paketshop/wunstorf/wunstorf/thies-media/'
'DHL Paketshop Dr. Mobile';9.4300633;52.4244399;'https://www.paket.net/dhl/paketshop/wunstorf/wunstorf/dr-mobile/'
'Paketshop DHL REWE Thorsten Krause oHG';9.451048;52.4198449;'https://www.paket.net/dhl/paketshop/wunstorf/wunstorf/rewe-thorsten-krause-ohg/'
'Paket Shop von DHL EDEKA nah und gut Bäckerei Ingo Bolte';9.6381211;52.2937392;'https://www.paket.net/dhl/paketshop/ronnenberg/weetzen/edeka-nah-und-gut-baeckerei-ingo-bolte/'
'Paketshop von DHL Hofladen';9.6165166;52.254165;'https://www.paket.net/dhl/paketshop/springe-deister/bredenbeck-am-deister/hofladen/'
'DHL Paket Filiale Dieter Neek   Haushalts-Fundgrube';9.6639729;52.2399373;'https://www.paket.net/dhl/paketshop/springe-deister/bennigsen/dieter-neek--haushalts-fundgrube/'
'Paket Shop von DHL Lotto / EDEKA-Markt';9.4551314;52.3902257;'https://www.paket.net/dhl/paketshop/wunstorf/kolenfeld/lotto-edeka-markt/'
'Paket Shop DHL Geschäft Geschenkartikel-Glas-Porzellan-Haushaltwaren Krone';9.9669952;52.2542739;'https://www.paket.net/dhl/paketshop/sehnde/algermissen/geschenkartikel-glas-porzellan-haushaltwaren-krone/'
'Paket Shop DHL Gartencenter';10.0729893;52.2637534;'https://www.paket.net/dhl/paketshop/sehnde/hohenhameln/gartencenter/'
'DHL Paketshop Kiosk im Preis Paradies';9.5539923;52.2118272;'https://www.paket.net/dhl/paketshop/springe-deister/springe/kiosk-im-preis-paradies/'
'DHL Paket Shop Schreibwaren Kusche';9.5567005;52.2095081;'https://www.paket.net/dhl/paketshop/springe-deister/springe/schreibwaren-kusche/'
'Paketshop DHL Expert Handels GmbH';9.5681225;52.2127523;'https://www.paket.net/dhl/paketshop/springe-deister/springe/expert-handels-gmbh/'
'Paket Shop DHL Tabakwaren Niemeyer';9.4639613;52.196789;'https://www.paket.net/dhl/paketshop/springe-deister/bad-muender/tabakwaren-niemeyer/'
'DHL Paket Laden Rolf Schweinebart';9.530951;52.1487039;'https://www.paket.net/dhl/paketshop/springe-deister/bruennighausen-kreis-hameln/rolf-schweinebart/'
'Paket Shop DHL Laden REWE';9.6729627;52.171683;'https://www.paket.net/dhl/paketshop/springe-deister/eldagsen-deister/rewe/'
'Paket Shop DHL Hannelore Seewald-Riechelmann';9.7285277;52.5796359;'https://www.paket.net/dhl/paketshop/wedemark/elze/hannelore-seewald-riechelmann/'
'Paketshop von DHL Postfiliale';9.6810883;52.5547729;'https://www.paket.net/dhl/paketshop/wedemark/brelingen/postfiliale/'
'DHL Paket Geschäft Postfiliale im Einzelhandel';9.6872389;52.6122631;'https://www.paket.net/dhl/paketshop/wedemark/lindwedel/postfiliale-im-einzelhandel/'
'DHL Paket Laden Malergeschäft';9.3787282;52.4146176;'https://www.paket.net/dhl/paketshop/wunstorf/bokeloh-bei-wunstorf/malergeschaeft/'
'DHL Paket Geschäft Postfiliale im Einzelhandel';9.3869537;52.3767096;'https://www.paket.net/dhl/paketshop/wunstorf/hohnhorst/postfiliale-im-einzelhandel/'
'DHL Paket Shop Lotto';9.3295392;52.4346832;'https://www.paket.net/dhl/paketshop/wunstorf/hagenburg/lotto/'
'Paketshop DHL Postfiliale';9.3708705;52.3683277;'https://www.paket.net/dhl/paketshop/wunstorf/hohnhorst/postfiliale/'
'Paket Shop von DHL Classic Tankstelle Jung';9.3150075;52.4298221;'https://www.paket.net/dhl/paketshop/wunstorf/hagenburg/classic-tankstelle-jung/'
