'name';'lon';'lat';'url'
'Hermes Paket Shop TabakLotto a.E.-Damm';9.7250065;52.3837286;'https://www.paket.net/hermes/paketshop/seelze/list/tabaklotto-a-e-damm/'
'Hermes Paket Laden Copy excellent';9.72878;52.38155;'https://www.paket.net/hermes/paketshop/seelze/list/copy-excellent/'
'Hermes Paket Shop Kiosk bei Koray';9.7342219;52.3895361;'https://www.paket.net/hermes/paketshop/seelze/list/kiosk-bei-koray/'
'Hermes Paket Filiale Lotto Kiosk';9.7211576;52.390623;'https://www.paket.net/hermes/paketshop/seelze/hainholz/lotto-kiosk/'
'Paket Shop Hermes Geschäft Kiosk Die Ecke';9.7311272;52.3911785;'https://www.paket.net/hermes/paketshop/seelze/list/kiosk-die-ecke/'
'Hermes Paket Geschäft Kiosk Lange Laube';9.7274235;52.3767474;'https://www.paket.net/hermes/paketshop/seelze/list/kiosk-lange-laube/'
'Paketshop Hermes ARAL Tankstelle';9.7400916;52.3833594;'https://www.paket.net/hermes/paketshop/ronnenberg/list/aral-tankstelle/'
'Hermes Paket Shop Der Dominicana';9.7381246;52.3900103;'https://www.paket.net/hermes/paketshop/seelze/list/der-dominicana/'
'Paketshop Hermes Kiosk Flacon';9.7230724;52.3756386;'https://www.paket.net/hermes/paketshop/seelze/limmer/kiosk-flacon/'
'Paketshop Hermes Kiosk Vahrenwald';9.7348075;52.393498;'https://www.paket.net/hermes/paketshop/seelze/list/kiosk-vahrenwald/'
'Hermes Paketshop VIP Kiosk';9.7334087;52.3747921;'https://www.paket.net/hermes/paketshop/seelze/list/vip-kiosk/'
'Paket Shop Hermes Geschäft Toto Lotto Vossstr';9.742921;52.3896542;'https://www.paket.net/hermes/paketshop/ronnenberg/list/toto-lotto-vossstr/'
'Paket Shop von Hermes MyPhone Repair';9.7468269;52.3851437;'https://www.paket.net/hermes/paketshop/ronnenberg/list/myphone-repair/'
'Hermes Paket Laden Doreens Blumenladen';9.7362686;52.3716718;'https://www.paket.net/hermes/paketshop/ronnenberg/bult/doreens-blumenladen/'
'Hermes Paketshop Kiosk Eichstrasse';9.7498212;52.3819216;'https://www.paket.net/hermes/paketshop/ronnenberg/list/kiosk-eichstrasse/'
'Paket Shop Hermes Laden Spaet Kauf Kiosk';9.7267827;52.3699593;'https://www.paket.net/hermes/paketshop/seelze/limmer/spaet-kauf-kiosk/'
'Hermes Paketshop Toto Lotto Zengi';9.7466121;52.3932742;'https://www.paket.net/hermes/paketshop/langenhagen-hannover/list/toto-lotto-zengi/'
'Paket Shop Hermes Laden Bustamis Buchhdlg.';9.7475356;52.3760853;'https://www.paket.net/hermes/paketshop/ronnenberg/bult/bustamis-buchhdlg/'
'Paket Shop von Hermes Alle Aamin Shop';9.7154337;52.398348;'https://www.paket.net/hermes/paketshop/seelze/hainholz/alle-aamin-shop/'
'Hermes Paket Shop Lindener Kiosk';9.7046148;52.3765995;'https://www.paket.net/hermes/paketshop/seelze/limmer/lindener-kiosk/'
'Paket Shop Hermes Drucker Tankstelle';9.7062072;52.3719129;'https://www.paket.net/hermes/paketshop/seelze/limmer/drucker-tankstelle/'
'Hermes Paket Filiale Kiosk Lavesstrasse';9.7503;52.3730017;'https://www.paket.net/hermes/paketshop/ronnenberg/bult/kiosk-lavesstrasse/'
'Paket Shop Hermes Kiosk Luay';9.7351802;52.4022026;'https://www.paket.net/hermes/paketshop/seelze/vahrenwald/kiosk-luay/'
'Paket Shop Hermes Geschäft Lotto Kiosk 23';9.746478;52.3662242;'https://www.paket.net/hermes/paketshop/ronnenberg/bult/lotto-kiosk-23/'
'Paket Shop von Hermes Jet Tankstelle';9.7356045;52.4057388;'https://www.paket.net/hermes/paketshop/seelze/vahrenwald/jet-tankstelle/'
'Hermes Paket Shop Jet Tankstelle';9.7572336;52.396291;'https://www.paket.net/hermes/paketshop/langenhagen-hannover/list/jet-tankstelle/'
'Hermes Paket Laden Action Point';9.7087131;52.3654479;'https://www.paket.net/hermes/paketshop/seelze/limmer/action-point/'
'Hermes Paketshop Phoenix Kiosk';9.6895648;52.3780739;'https://www.paket.net/hermes/paketshop/seelze/limmer/phoenix-kiosk/'
'Paket Shop Hermes Kiosk 96';9.6901296;52.3768728;'https://www.paket.net/hermes/paketshop/seelze/limmer/kiosk-96/'
'Paketshop von Hermes Kiosk 22';9.7545086;52.367656;'https://www.paket.net/hermes/paketshop/ronnenberg/bult/kiosk-22/'
'Paketshop von Hermes Fotostudio MonoLine';9.7620846;52.3951591;'https://www.paket.net/hermes/paketshop/langenhagen-hannover/list/fotostudio-monoline/'
'Paketshop von Hermes HEM Tankstelle';9.71118;52.40655;'https://www.paket.net/hermes/paketshop/seelze/hainholz/hem-tankstelle/'
'Hermes Paket Shop Total Tankstelle';9.693373;52.400738;'https://www.paket.net/hermes/paketshop/seelze/herrenhausen/total-tankstelle/'
'Paketshop Hermes Shell Tankstelle';9.7082281;52.4085508;'https://www.paket.net/hermes/paketshop/seelze/hainholz/shell-tankstelle/'
'Hermes Paketshop Kiosk Suedstadt';9.7567265;52.363985;'https://www.paket.net/hermes/paketshop/ronnenberg/bult/kiosk-suedstadt/'
'Hermes Paketshop Kiosk 72';9.7485019;52.3587101;'https://www.paket.net/hermes/paketshop/ronnenberg/bult/kiosk-72/'
'Hermes Paketshop Sitt Getraenkemarkt';9.6940333;52.3616905;'https://www.paket.net/hermes/paketshop/seelze/bornum/sitt-getraenkemarkt/'
'Hermes Paket Filiale Kiosk RW';9.6788563;52.3955072;'https://www.paket.net/hermes/paketshop/seelze/leinhausen/kiosk-rw/'
'Hermes Paket Geschäft ARAL Tankstelle';9.76813;52.3578541;'https://www.paket.net/hermes/paketshop/ronnenberg/bult/aral-tankstelle/'
'Paket Shop von Hermes KKV Schreibwaren';9.75559;52.3563;'https://www.paket.net/hermes/paketshop/ronnenberg/waldhausen/kkv-schreibwaren/'
'Paket Shop Hermes Laden Kiosk Kuemmel';9.7532821;52.4146666;'https://www.paket.net/hermes/paketshop/langenhagen-hannover/vahrenwald/kiosk-kuemmel/'
'Paket Shop Hermes Filiale Getraenke Shop';9.7630796;52.4125919;'https://www.paket.net/hermes/paketshop/langenhagen-hannover/vahrenwald/getraenke-shop/'
'Paket Shop Hermes Geschäft bbluel Autoteile';9.7016658;52.3521201;'https://www.paket.net/hermes/paketshop/seelze/bornum/bbluel-autoteile/'
'Paket Shop von Hermes AYGAMES AN & VERKAUF';9.6722768;52.3984413;'https://www.paket.net/hermes/paketshop/seelze/leinhausen/aygames-an-und-verkauf/'
'Paket Shop Hermes Laden Lotto Bahnbruecke';9.7862842;52.3731551;'https://www.paket.net/hermes/paketshop/langenhagen-hannover/kleefeld/lotto-bahnbruecke/'
'Paket Shop Hermes Filiale Can Kiosk';9.672827;52.3633426;'https://www.paket.net/hermes/paketshop/seelze/badenstedt/can-kiosk/'
'Hermes Paket Filiale Shell Tankstelle';9.7061737;52.3472989;'https://www.paket.net/hermes/paketshop/seelze/ricklingen/shell-tankstelle/'
'Paketshop von Hermes TTankstelle Badenst.';9.677732;52.3582848;'https://www.paket.net/hermes/paketshop/seelze/badenstedt/ttankstelle-badenst/'
'Hermes Paket Laden Kiosk Steinbreite';9.6636494;52.3721925;'https://www.paket.net/hermes/paketshop/seelze/davenstedt/kiosk-steinbreite/'
'Paketshop Hermes Kiosk 77';9.79276;52.3718044;'https://www.paket.net/hermes/paketshop/langenhagen-hannover/kleefeld/kiosk-77/'
'Hermes Paket Laden Shell Tankstelle';9.7931462;52.3973805;'https://www.paket.net/hermes/paketshop/langenhagen-hannover/gross-buchholz/shell-tankstelle/'
'Hermes Paket Shop Kiosk Suerig';9.7782433;52.4139803;'https://www.paket.net/hermes/paketshop/langenhagen-hannover/bothfeld/kiosk-suerig/'
'Paket Shop Hermes Geschäft HEM Tankstelle';9.67849;52.41584;'https://www.paket.net/hermes/paketshop/seelze/stoecken/hem-tankstelle/'
'Paketshop von Hermes Eichsfelder Kiosk';9.6684656;52.4097905;'https://www.paket.net/hermes/paketshop/seelze/stoecken/eichsfelder-kiosk/'
'Paket Shop Hermes Schreibwaren Doehren';9.762301;52.3456846;'https://www.paket.net/hermes/paketshop/ronnenberg/waldhausen/schreibwaren-doehren/'
'Paketshop Hermes Stichweh Reinigung';9.6713071;52.3557803;'https://www.paket.net/hermes/paketshop/seelze/badenstedt/stichweh-reinigung/'
'Paketshop Hermes Kiosk Alte Heide';9.7818665;52.415229;'https://www.paket.net/hermes/paketshop/langenhagen-hannover/bothfeld/kiosk-alte-heide/'
'Paketshop von Hermes famila Tankstelle';9.7160384;52.4301274;'https://www.paket.net/hermes/paketshop/seelze/vinnhorst/famila-tankstelle/'
'Paketshop Hermes Ginos Kiosk';9.717366;52.3386303;'https://www.paket.net/hermes/paketshop/ronnenberg/ricklingen/ginos-kiosk/'
'Paketshop Hermes Papier Center';9.663889;52.4102558;'https://www.paket.net/hermes/paketshop/seelze/stoecken/papier-center/'
'Hermes Paket Geschäft Kiosk Shop';9.7318445;52.4320258;'https://www.paket.net/hermes/paketshop/langenhagen-hannover/godshorn/kiosk-shop/'
'Paket Shop Hermes Toto-Lotto Nguyen';9.6935573;52.340734;'https://www.paket.net/hermes/paketshop/seelze/bornum/toto-lotto-nguyen/'
'Hermes Paket Shop Werbewelt Copex';9.7634276;52.3409574;'https://www.paket.net/hermes/paketshop/ronnenberg/waldhausen/werbewelt-copex/'
'Paket Shop von Hermes Kiosk Hindenburg';9.7447759;52.4336074;'https://www.paket.net/hermes/paketshop/langenhagen-hannover/godshorn/kiosk-hindenburg/'
'Paketshop von Hermes Kiosk Stehcafe';9.766654;52.3398876;'https://www.paket.net/hermes/paketshop/ronnenberg/doehren/kiosk-stehcafe/'
'Paket Shop Hermes Geschäft Valentinas Naehstube';9.8099614;52.390852;'https://www.paket.net/hermes/paketshop/langenhagen-hannover/gross-buchholz/valentinas-naehstube/'
'Hermes Paket Filiale EDEKA SchmidtChrist';9.6456556;52.4011723;'https://www.paket.net/hermes/paketshop/seelze/letter/edeka-schmidtchrist/'
'Paket Shop Hermes Shell Tankstelle';9.8036722;52.4079694;'https://www.paket.net/hermes/paketshop/langenhagen-hannover/bothfeld/shell-tankstelle/'
'Hermes Paket Geschäft TOTAL - Tankstelle';9.7974057;52.4145422;'https://www.paket.net/hermes/paketshop/langenhagen-hannover/bothfeld/total-tankstelle/'
'Paket Shop Hermes Geschäft Stichweh Reinigung';9.8128985;52.3807874;'https://www.paket.net/hermes/paketshop/langenhagen-hannover/gross-buchholz/stichweh-reinigung/'
'Paket Shop Hermes Shell Tankstelle';9.7363702;52.4379395;'https://www.paket.net/hermes/paketshop/langenhagen-hannover/godshorn/shell-tankstelle/'
'Paket Shop Hermes Filiale Kiosk Heidkampe';9.8049217;52.4120104;'https://www.paket.net/hermes/paketshop/langenhagen-hannover/bothfeld/kiosk-heidkampe/'
'Paket Shop von Hermes Sprint Tankstelle';9.6653972;52.3435673;'https://www.paket.net/hermes/paketshop/seelze/empelde/sprint-tankstelle/'
'Paketshop Hermes Schneiderei Genrich';9.7349104;52.4403718;'https://www.paket.net/hermes/paketshop/langenhagen-hannover/godshorn/schneiderei-genrich/'
'Hermes Paketshop Kiosk West';9.690208;52.3330305;'https://www.paket.net/hermes/paketshop/seelze/wettbergen/kiosk-west/'
'Hermes Paket Filiale Shell Tankstelle';9.7720958;52.3346924;'https://www.paket.net/hermes/paketshop/ronnenberg/doehren/shell-tankstelle/'
'Hermes Paket Laden Hoyer Tank Treff';9.72293;52.44144;'https://www.paket.net/hermes/paketshop/langenhagen-hannover/godshorn/hoyer-tank-treff/'
'Hermes Paket Laden bft Tankstelle';9.7011257;52.3291075;'https://www.paket.net/hermes/paketshop/ronnenberg/wettbergen/bft-tankstelle/'
'Paketshop Hermes Kiosk 19';9.694661;52.3295789;'https://www.paket.net/hermes/paketshop/seelze/wettbergen/kiosk-19/'
'Hermes Paketshop Stichweh Reinigung';9.7241332;52.3248951;'https://www.paket.net/hermes/paketshop/ronnenberg/devese/stichweh-reinigung/'
'Hermes Paket Shop STAR Tankstelle';9.73705;52.44411;'https://www.paket.net/hermes/paketshop/langenhagen-hannover/godshorn/star-tankstelle/'
'Paket Shop Hermes Laden Kiosk an der Ecke';9.7738318;52.3316599;'https://www.paket.net/hermes/paketshop/ronnenberg/wuelfel/kiosk-an-der-ecke/'
'Hermes Paket Filiale schreib fit Schmidt';9.8229686;52.3998027;'https://www.paket.net/hermes/paketshop/langenhagen-hannover/gross-buchholz/schreib-fit-schmidt/'
'Hermes Paket Shop ARAL Tankstelle';9.7248978;52.3226712;'https://www.paket.net/hermes/paketshop/ronnenberg/devese/aral-tankstelle/'
'Paket Shop Hermes Kiosk Ruebezahl';9.789172;52.3338351;'https://www.paket.net/hermes/paketshop/ronnenberg/mittelfeld/kiosk-ruebezahl/'
'Paket Shop Hermes Geschäft Adam Getraenke GmbH';9.74878;52.3206;'https://www.paket.net/hermes/paketshop/ronnenberg/wilkenburg/adam-getraenke-gmbh/'
'Hermes Paketshop Express 2000';9.7418123;52.4491923;'https://www.paket.net/hermes/paketshop/langenhagen-hannover/kraehenwinkel/express-2000/'
'Paket Shop Hermes Geschäft Kiosk am Kanal';9.834148;52.3864139;'https://www.paket.net/hermes/paketshop/lehrte-bei-hannover/gross-buchholz/kiosk-am-kanal/'
'Paket Shop Hermes Laden ARAL Tankstelle';9.6350403;52.4186538;'https://www.paket.net/hermes/paketshop/seelze/marienwerder/aral-tankstelle/'
'Paket Shop von Hermes Total Tankstelle';9.6188237;52.3779103;'https://www.paket.net/hermes/paketshop/seelze/harenberg/total-tankstelle/'
'Paket Shop Hermes Filiale Hermes Depot';9.6923016;52.4475523;'https://www.paket.net/hermes/paketshop/seelze/godshorn/hermes-depot/'
'Hermes Paketshop HEM Tankstelle';9.8022663;52.4329818;'https://www.paket.net/hermes/paketshop/langenhagen-hannover/isernhagen-sued/hem-tankstelle/'
'Paketshop Hermes Westfalen Tankstelle';9.7818629;52.3264656;'https://www.paket.net/hermes/paketshop/ronnenberg/wuelfel/westfalen-tankstelle/'
'Hermes Paketshop Joiss Tankstelle';9.8276384;52.3559068;'https://www.paket.net/hermes/paketshop/laatzen-bei-hannover/kirchrode/joiss-tankstelle/'
'Hermes Paket Shop STAR Tankst. Seelze';9.6144997;52.3929578;'https://www.paket.net/hermes/paketshop/seelze/seelze/star-tankst-seelze/'
'Hermes Paketshop Shell Tankstelle';9.8124579;52.3378989;'https://www.paket.net/hermes/paketshop/laatzen-bei-hannover/bemerode/shell-tankstelle/'
'Paketshop von Hermes Tankpoint Pferdemark';9.7274809;52.4547304;'https://www.paket.net/hermes/paketshop/langenhagen-hannover/kraehenwinkel/tankpoint-pferdemark/'
'Paket Shop Hermes Geschäft Stichweh Textil';9.8285114;52.3468085;'https://www.paket.net/hermes/paketshop/sehnde/bemerode/stichweh-textil/'
'Paket Shop Hermes Laden HEM Tankstelle';9.8326861;52.4193231;'https://www.paket.net/hermes/paketshop/langenhagen-hannover/lahe/hem-tankstelle/'
'Paketshop Hermes STAR Tankst.Havelse';9.6113998;52.405287;'https://www.paket.net/hermes/paketshop/seelze/marienwerder/star-tankst-havelse/'
'Hermes Paket Filiale ESSO Tankstelle';9.8274308;52.3436579;'https://www.paket.net/hermes/paketshop/sehnde/bemerode/esso-tankstelle/'
'Paket Shop von Hermes Shell Tankstelle';9.7337246;52.3093546;'https://www.paket.net/hermes/paketshop/ronnenberg/arnum-kreis-hannover/shell-tankstelle/'
'Paket Shop von Hermes Allround Kiosk';9.828438;52.4281541;'https://www.paket.net/hermes/paketshop/langenhagen-hannover/lahe/allround-kiosk/'
'Paket Shop Hermes Filiale Rauch Palast';9.7881907;52.3179307;'https://www.paket.net/hermes/paketshop/ronnenberg/wuelfel/rauch-palast/'
'Paket Shop von Hermes Schluesseld. im EKZ';9.7953599;52.3202061;'https://www.paket.net/hermes/paketshop/ronnenberg/mittelfeld/schluesseld-im-ekz/'
'Paketshop von Hermes Kiosk Adnan';9.6602602;52.318039;'https://www.paket.net/hermes/paketshop/seelze/ronnenberg/kiosk-adnan/'
'Hermes Paket Filiale ARAL Tankstelle';9.8150473;52.3238887;'https://www.paket.net/hermes/paketshop/laatzen-bei-hannover/bemerode/aral-tankstelle/'
'Paketshop von Hermes Shell Tankstelle';9.7971751;52.3181664;'https://www.paket.net/hermes/paketshop/ronnenberg/wuelfel/shell-tankstelle/'
'Paket Shop Hermes Safak Lebensmittel';9.851019;52.36048;'https://www.paket.net/hermes/paketshop/sehnde/anderten-kreis-hannover/safak-lebensmittel/'
'Paketshop von Hermes STAR Kiosk';9.83414;52.33768;'https://www.paket.net/hermes/paketshop/sehnde/bemerode/star-kiosk/'
'Hermes Paket Laden Mert Abi Kiosk';9.82992;52.33333;'https://www.paket.net/hermes/paketshop/sehnde/bemerode/mert-abi-kiosk/'
'Paket Shop Hermes Filiale Dianas Kiosk';9.6513981;52.3176464;'https://www.paket.net/hermes/paketshop/seelze/ronnenberg/dianas-kiosk/'
'Paket Shop Hermes Filiale Shell Tankstelle';9.6149017;52.4305907;'https://www.paket.net/hermes/paketshop/seelze/havelse/shell-tankstelle/'
'Paketshop Hermes Aland Textilrein.';9.8576574;52.3633382;'https://www.paket.net/hermes/paketshop/sehnde/anderten-kreis-hannover/aland-textilrein/'
'Hermes Paketshop Der Gruene Kiosk';9.5928005;52.3958873;'https://www.paket.net/hermes/paketshop/seelze/seelze/der-gruene-kiosk/'
'Paket Shop von Hermes Anderter PresseShop';9.8619659;52.371542;'https://www.paket.net/hermes/paketshop/sehnde/anderten-kreis-hannover/anderter-presseshop/'
'Hermes Paket Geschäft ARAL Tankstelle';9.7983153;52.3118621;'https://www.paket.net/hermes/paketshop/ronnenberg/grasdorf-leine/aral-tankstelle/'
'Paket Shop Hermes EDEKA Berenbostel';9.61951;52.4391664;'https://www.paket.net/hermes/paketshop/seelze/berenbostel/edeka-berenbostel/'
'Paketshop von Hermes Mein Cafe';9.5967244;52.4168774;'https://www.paket.net/hermes/paketshop/seelze/havelse/mein-cafe/'
'Hermes Paketshop ARAL Tankstelle';9.8614976;52.3581032;'https://www.paket.net/hermes/paketshop/sehnde/anderten-kreis-hannover/aral-tankstelle/'
'Paket Shop Hermes Geschäft Kiosk a.SchwarzenSee';9.603644;52.427043;'https://www.paket.net/hermes/paketshop/seelze/havelse/kiosk-a-schwarzensee/'
'Hermes Paket Laden ARAL Tankstelle';9.5953944;52.421312;'https://www.paket.net/hermes/paketshop/seelze/havelse/aral-tankstelle/'
'Hermes Paket Laden Bozer Schreibwaren';9.8516377;52.4312025;'https://www.paket.net/hermes/paketshop/langenhagen-hannover/altwarmbuechen/bozer-schreibwaren/'
'Paket Shop Hermes MiniShop Maschweg';9.5880151;52.4129692;'https://www.paket.net/hermes/paketshop/seelze/havelse/minishop-maschweg/'
'Hermes Paketshop ESSO Tankstelle';9.4757529;52.2977097;'https://www.paket.net/hermes/paketshop/barsinghausen/barsinghausen/esso-tankstelle/'
'Hermes Paket Shop Baeckerei Hoener';9.4792522;52.3054947;'https://www.paket.net/hermes/paketshop/barsinghausen/barsinghausen/baeckerei-hoener/'
'Paketshop Hermes Rauch Palast';9.4670484;52.3021263;'https://www.paket.net/hermes/paketshop/barsinghausen/barsinghausen/rauch-palast/'
'Paket Shop Hermes Markant Tankstelle';9.4522808;52.3075446;'https://www.paket.net/hermes/paketshop/barsinghausen/winninghausen-am-deister/markant-tankstelle/'
'Paketshop von Hermes STAR Tankstelle';9.4210101;52.33121;'https://www.paket.net/hermes/paketshop/barsinghausen/bantorf/star-tankstelle/'
'Hermes Paket Geschäft Westfalen Tankstelle';9.5529924;52.3230369;'https://www.paket.net/hermes/paketshop/seelze/leveste/westfalen-tankstelle/'
'Hermes Paket Geschäft Herbert Reese GmbH';9.420073;52.2371073;'https://www.paket.net/hermes/paketshop/springe-deister/eimbeckhausen/herbert-reese-gmbh/'
'Hermes Paket Geschäft LottoTotoSport Wiese';9.3695942;52.273778;'https://www.paket.net/hermes/paketshop/barsinghausen/lauenau/lottototosport-wiese/'
'Paket Shop Hermes SB. Tankstelle';9.38332;52.33748;'https://www.paket.net/hermes/paketshop/wunstorf/bad-nenndorf/sb-tankstelle/'
'Paket Shop Hermes Geschäft Shell Tankstelle';9.3706458;52.2676617;'https://www.paket.net/hermes/paketshop/barsinghausen/lauenau/shell-tankstelle/'
'Hermes Paket Laden TAS Tankstelle';9.42204;52.2325525;'https://www.paket.net/hermes/paketshop/springe-deister/eimbeckhausen/tas-tankstelle/'
'Paket Shop Hermes Filiale Tankstelle Seifert';9.3707181;52.329741;'https://www.paket.net/hermes/paketshop/barsinghausen/bad-nenndorf/tankstelle-seifert/'
'Paket Shop Hermes Filiale Getraenke Lenz';9.384682;52.3434511;'https://www.paket.net/hermes/paketshop/wunstorf/bad-nenndorf/getraenke-lenz/'
'Paket Shop von Hermes Stichweh Textil';9.6008077;52.3121935;'https://www.paket.net/hermes/paketshop/seelze/gehrden/stichweh-textil/'
'Paketshop Hermes Fa. Liutografie';9.3771851;52.3375293;'https://www.paket.net/hermes/paketshop/barsinghausen/bad-nenndorf/fa-liutografie/'
'Paket Shop Hermes welcome to the sun';9.3553476;52.3124821;'https://www.paket.net/hermes/paketshop/barsinghausen/rodenberg/welcome-to-the-sun/'
'Paket Shop Hermes Amatzo UG';10.0058033;52.4464117;'https://www.paket.net/hermes/paketshop/lehrte-bei-hannover/burgdorf/amatzo-ug/'
'Paketshop Hermes bft Tankstelle';10.0165647;52.444431;'https://www.paket.net/hermes/paketshop/lehrte-bei-hannover/burgdorf/bft-tankstelle/'
'Paket Shop Hermes Laden OBIWAAN Wiemann';10.0144296;52.4401362;'https://www.paket.net/hermes/paketshop/lehrte-bei-hannover/burgdorf/obiwaan-wiemann/'
'Hermes Paket Laden HEM Tankstelle';10.0126549;52.4552682;'https://www.paket.net/hermes/paketshop/lehrte-bei-hannover/burgdorf/hem-tankstelle/'
'Paket Shop Hermes Filiale HEM Tankst Heessel';9.9839231;52.444722;'https://www.paket.net/hermes/paketshop/lehrte-bei-hannover/heessel-bei-lehrte/hem-tankst-heessel/'
'Paket Shop von Hermes Kiosk Otze';10.0088728;52.4842995;'https://www.paket.net/hermes/paketshop/burgdorf-kreis-hannover/otze/kiosk-otze/'
'Hermes Paket Laden Shell Tankstelle';9.9943459;52.4892598;'https://www.paket.net/hermes/paketshop/burgdorf-kreis-hannover/otze/shell-tankstelle/'
'Hermes Paket Shop Joiss Tankstelle';9.9736401;52.3983521;'https://www.paket.net/hermes/paketshop/sehnde/aligse/joiss-tankstelle/'
'Hermes Paket Filiale HEM Tankstelle';10.0877876;52.4817734;'https://www.paket.net/hermes/paketshop/burgdorf-kreis-hannover/haenigsen/hem-tankstelle/'
'Hermes Paket Geschäft Schneiderei Manusina';9.8948147;52.4463391;'https://www.paket.net/hermes/paketshop/lehrte-bei-hannover/kirchhorst/schneiderei-manusina/'
'Paket Shop Hermes Geschäft Lehrter Schatzkiste';9.9762425;52.3801284;'https://www.paket.net/hermes/paketshop/sehnde/lehrte/lehrter-schatzkiste/'
'Hermes Paket Geschäft Kiosk Abayev';9.9758999;52.3774692;'https://www.paket.net/hermes/paketshop/sehnde/lehrte/kiosk-abayev/'
'Hermes Paket Laden EDEKA Center Cramer';9.9784577;52.3756118;'https://www.paket.net/hermes/paketshop/sehnde/lehrte/edeka-center-cramer/'
'Paket Shop von Hermes Getraenke Quelle';9.9730038;52.3698189;'https://www.paket.net/hermes/paketshop/sehnde/lehrte/getraenke-quelle/'
'Paketshop von Hermes Kiosk IltenerStrasse';9.9703733;52.3686528;'https://www.paket.net/hermes/paketshop/sehnde/lehrte/kiosk-iltenerstrasse/'
'Hermes Paketshop LottoShop B6';9.6004058;52.4359059;'https://www.paket.net/hermes/paketshop/seelze/berenbostel/lottoshop-b6/'
'Hermes Paket Geschäft TOTAL Tankst.Garbsen';9.6086184;52.4435871;'https://www.paket.net/hermes/paketshop/seelze/berenbostel/total-tankst-garbsen/'
'Hermes Paket Shop HEM Tankstelle';9.58936;52.43954;'https://www.paket.net/hermes/paketshop/seelze/berenbostel/hem-tankstelle/'
'Hermes Paket Geschäft Kiosk Beethoven';9.5857025;52.4212215;'https://www.paket.net/hermes/paketshop/seelze/havelse/kiosk-beethoven/'
'Paket Shop Hermes Geschäft Horster Laedchen';9.5418182;52.4417842;'https://www.paket.net/hermes/paketshop/wunstorf/horst-bei-wunstorf/horster-laedchen/'
'Hermes Paket Filiale Frischmarkt Resse';9.6306223;52.5061406;'https://www.paket.net/hermes/paketshop/wedemark/resse-bei-hannover/frischmarkt-resse/'
'Hermes Paket Laden Astrids Cafe';9.487275;52.4662658;'https://www.paket.net/hermes/paketshop/wunstorf/bordenau/astrids-cafe/'
'Paketshop von Hermes Schreibwaren Luthe';9.4727728;52.4272889;'https://www.paket.net/hermes/paketshop/wunstorf/luthe/schreibwaren-luthe/'
'Paket Shop Hermes M1- Tankstelle';9.4682498;52.4162609;'https://www.paket.net/hermes/paketshop/wunstorf/luthe/m1-tankstelle/'
'Hermes Paket Laden TUI TravelStar';9.7979453;52.4759051;'https://www.paket.net/hermes/paketshop/wedemark/kraehenwinkel/tui-travelstar/'
'Hermes Paket Geschäft Shell Tankstelle';9.8430736;52.4919404;'https://www.paket.net/hermes/paketshop/wedemark/grossburgwedel/shell-tankstelle/'
'Paket Shop Hermes Geschäft ESSO Tankstelle';9.847488;52.491061;'https://www.paket.net/hermes/paketshop/wedemark/grossburgwedel/esso-tankstelle/'
'Paket Shop Hermes Laden Spaetkauf Burgwedel';9.8523606;52.4914352;'https://www.paket.net/hermes/paketshop/wedemark/grossburgwedel/spaetkauf-burgwedel/'
'Paketshop von Hermes Tankpoint Kibitzkrug';9.729092;52.4947013;'https://www.paket.net/hermes/paketshop/wedemark/kaltenweide/tankpoint-kibitzkrug/'
'Hermes Paketshop Patronen Bar';9.7330962;52.5459328;'https://www.paket.net/hermes/paketshop/wedemark/mellendorf-han/patronen-bar/'
'Hermes Paket Shop ESSO Tankstelle';9.7261298;52.5466706;'https://www.paket.net/hermes/paketshop/wedemark/mellendorf-han/esso-tankstelle/'
'Paket Shop von Hermes Frischmarkt Fuhrberg';9.8350475;52.5644639;'https://www.paket.net/hermes/paketshop/wedemark/fuhrberg/frischmarkt-fuhrberg/'
'Hermes Paketshop KKiosk LeineCenter';9.8113972;52.3066679;'https://www.paket.net/hermes/paketshop/laatzen-bei-hannover/grasdorf-leine/kkiosk-leinecenter/'
'Paketshop Hermes Kiosk Heidfeld';9.8108266;52.3009372;'https://www.paket.net/hermes/paketshop/laatzen-bei-hannover/grasdorf-leine/kiosk-heidfeld/'
'Hermes Paket Geschäft SITT Getraenkemarkt';9.8148945;52.2918517;'https://www.paket.net/hermes/paketshop/laatzen-bei-hannover/rethen-leine/sitt-getraenkemarkt/'
'Paket Shop von Hermes Getraenke Jessberger';9.836931;52.2756206;'https://www.paket.net/hermes/paketshop/laatzen-bei-hannover/gleidingen/getraenke-jessberger/'
'Paket Shop Hermes Laden Fa. Bluetenwelt';9.8820354;52.2818705;'https://www.paket.net/hermes/paketshop/sehnde/oesselse/fa-bluetenwelt/'
'Paket Shop von Hermes Shell Tankstelle';9.8461674;52.2353978;'https://www.paket.net/hermes/paketshop/laatzen-bei-hannover/sarstedt/shell-tankstelle/'
'Paket Shop Hermes Filiale Weymann & Weymann';9.8574077;52.2349293;'https://www.paket.net/hermes/paketshop/laatzen-bei-hannover/sarstedt/weymann-und-weymann/'
'Paket Shop Hermes HolAb Getraenkemarkt';9.93211;52.34018;'https://www.paket.net/hermes/paketshop/sehnde/ilten-han/holab-getraenkemarkt/'
'Paket Shop von Hermes Kiosk Prepelytskyi';9.840405;52.2233314;'https://www.paket.net/hermes/paketshop/laatzen-bei-hannover/giften/kiosk-prepelytskyi/'
'Hermes Paket Shop Getraenke Quelle';9.9642759;52.3160121;'https://www.paket.net/hermes/paketshop/sehnde/sehnde/getraenke-quelle/'
'Hermes Paketshop Reinigung Stichweh';9.9655238;52.3158657;'https://www.paket.net/hermes/paketshop/sehnde/sehnde/reinigung-stichweh/'
'Paketshop Hermes Nordoel Tankstelle';9.9736902;52.315223;'https://www.paket.net/hermes/paketshop/sehnde/sehnde/nordoel-tankstelle/'
'Hermes Paket Filiale Score SB Station';10.1171299;52.3573405;'https://www.paket.net/hermes/paketshop/lehrte-bei-hannover/haemelerwald/score-sb-station/'
'Hermes Paketshop Sievers Copy';9.4546729;52.5052146;'https://www.paket.net/hermes/paketshop/wunstorf/mecklenhorst-am-ruebenberge/sievers-copy/'
'Paket Shop Hermes Laden OIL Tankstelle';9.4563114;52.4977999;'https://www.paket.net/hermes/paketshop/wunstorf/mecklenhorst-am-ruebenberge/oil-tankstelle/'
'Hermes Paket Shop Tabakshop Mittelstr.';9.4613987;52.5053325;'https://www.paket.net/hermes/paketshop/wunstorf/mecklenhorst-am-ruebenberge/tabakshop-mittelstr/'
'Paketshop Hermes Tank Center Neustadt';9.4690816;52.504675;'https://www.paket.net/hermes/paketshop/wunstorf/mecklenhorst-am-ruebenberge/tank-center-neustadt/'
'Paketshop von Hermes Famila Tankstelle';9.4767174;52.5107978;'https://www.paket.net/hermes/paketshop/neustadt-am-ruebenberge/mecklenhorst-am-ruebenberge/famila-tankstelle/'
'Hermes Paket Laden ELNIK Mariensee';9.4866142;52.5616456;'https://www.paket.net/hermes/paketshop/neustadt-am-ruebenberge/mariensee-leine/elnik-mariensee/'
'Hermes Paket Geschäft TAS Tankstelle';9.3646534;52.4584751;'https://www.paket.net/hermes/paketshop/wunstorf/steinhude/tas-tankstelle/'
'Hermes Paket Shop ARAL Tankstelle';9.4229965;52.4296831;'https://www.paket.net/hermes/paketshop/wunstorf/wunstorf/aral-tankstelle/'
'Paketshop Hermes Shell Tankstelle';9.4546454;52.4261745;'https://www.paket.net/hermes/paketshop/wunstorf/blumenau-niedersachsen/shell-tankstelle/'
'Hermes Paketshop Kiosk Box';9.4318903;52.4221674;'https://www.paket.net/hermes/paketshop/wunstorf/wunstorf/kiosk-box/'
'Paketshop Hermes Nordoel Tankstelle';9.6410744;52.2955192;'https://www.paket.net/hermes/paketshop/ronnenberg/weetzen/nordoel-tankstelle/'
'Paketshop von Hermes Toto Lotto Rehburg';9.6181961;52.2543782;'https://www.paket.net/hermes/paketshop/springe-deister/bredenbeck-am-deister/toto-lotto-rehburg/'
'Hermes Paket Filiale Schuhhaus Bettels';9.9695165;52.255103;'https://www.paket.net/hermes/paketshop/sehnde/algermissen/schuhhaus-bettels/'
'Paket Shop Hermes Filiale Bieneck Schreibwaren';9.9689042;52.2534202;'https://www.paket.net/hermes/paketshop/sehnde/algermissen/bieneck-schreibwaren/'
'Hermes Paket Geschäft OIL Tankstelle';10.0717428;52.2604976;'https://www.paket.net/hermes/paketshop/sehnde/hohenhameln/oil-tankstelle/'
'Hermes Paketshop OttoSh. Riethmueller';9.55602;52.20991;'https://www.paket.net/hermes/paketshop/springe-deister/springe/ottosh-riethmueller/'
'Hermes Paket Shop Fa. Floralis';9.6249698;52.2170285;'https://www.paket.net/hermes/paketshop/springe-deister/voelksen/fa-floralis/'
'Paketshop Hermes TAS Tankstelle';9.4685066;52.1954653;'https://www.paket.net/hermes/paketshop/springe-deister/bad-muender/tas-tankstelle/'
'Paket Shop Hermes Getraenke Quelle';9.46199;52.19633;'https://www.paket.net/hermes/paketshop/springe-deister/bad-muender/getraenke-quelle/'
'Paket Shop von Hermes REWE Markt Eldagsen';9.6730719;52.1719908;'https://www.paket.net/hermes/paketshop/springe-deister/eldagsen-deister/rewe-markt-eldagsen/'
'Paketshop Hermes ARAL Tankstelle';9.7280885;52.5772244;'https://www.paket.net/hermes/paketshop/wedemark/elze/aral-tankstelle/'
'Paket Shop Hermes 2 Rad Stille';9.7344536;52.5800029;'https://www.paket.net/hermes/paketshop/wedemark/elze/2-rad-stille/'
'Paket Shop von Hermes Westfalen Tankstelle';9.3941181;52.3827064;'https://www.paket.net/hermes/paketshop/wunstorf/hohnhorst/westfalen-tankstelle/'
'Hermes Paket Filiale Getraenke Damke';9.3291823;52.4346731;'https://www.paket.net/hermes/paketshop/wunstorf/hagenburg/getraenke-damke/'
